{
"type": "FeatureCollection",
"name": "huetten_tirol_reduced",
"crs": { "type": "name", "properties": { "name": "urn:ogc:def:crs:OGC:1.3:CRS84" } },
"features": [
{ "type": "Feature", "properties": { "email": null, "website": "https://www.rinner-alm.com/", "ele": "1394", "phone": "+43 5223 78409", "opening_ho": "Tu-Sa 09:00-22:00; Su 09:00-18:00", "name": "Rinner Alm", "contact_we": null }, "geometry": { "type": "Point", "coordinates": [ 11.4992731, 47.2371846 ] } },
{ "type": "Feature", "properties": { "email": null, "website": "http://www.bergeralm.net/de/bergbahnen-bergeralm/gastronomie/bergeralm-huette/", "ele": "1540", "phone": null, "opening_ho": null, "name": "Bergeralm", "contact_we": null }, "geometry": { "type": "Point", "coordinates": [ 11.4571455, 47.0753316 ] } },
{ "type": "Feature", "properties": { "email": null, "website": "https://www.sistranseralm.at/", "ele": "1609", "phone": "+43 699 100 18 948", "opening_ho": "Mo,Su,PH 09:00-18:00; We-Sa 09:00-21:00", "name": "Sistranser Alm", "contact_we": null }, "geometry": { "type": "Point", "coordinates": [ 11.4672618, 47.2216616 ] } },
{ "type": "Feature", "properties": { "email": null, "website": "https://www.eppzirleralm.at/", "ele": "1455", "phone": "+436649379033", "opening_ho": null, "name": "Eppzirler Alm", "contact_we": null }, "geometry": { "type": "Point", "coordinates": [ 11.267244, 47.331048 ] } },
{ "type": "Feature", "properties": { "email": null, "website": "http://www.wildeben.info/", "ele": "1780", "phone": null, "opening_ho": null, "name": "Wildeben", "contact_we": null }, "geometry": { "type": "Point", "coordinates": [ 11.3572701, 47.1253893 ] } },
{ "type": "Feature", "properties": { "email": null, "website": null, "ele": "1640", "phone": "+436805540504", "opening_ho": null, "name": "Inzinger Alm", "contact_we": null }, "geometry": { "type": "Point", "coordinates": [ 11.1520401, 47.2404579 ] } },
{ "type": "Feature", "properties": { "email": null, "website": null, "ele": "2240", "phone": null, "opening_ho": null, "name": "Seducker Hochalm", "contact_we": null }, "geometry": { "type": "Point", "coordinates": [ 11.2101032, 47.1151963 ] } },
{ "type": "Feature", "properties": { "email": null, "website": null, "ele": "1663", "phone": null, "opening_ho": null, "name": "Peeralm", "contact_we": null }, "geometry": { "type": "Point", "coordinates": [ 11.5595653, 47.1512237 ] } },
{ "type": "Feature", "properties": { "email": null, "website": null, "ele": "1940", "phone": null, "opening_ho": null, "name": "Furgges Alm", "contact_we": null }, "geometry": { "type": "Point", "coordinates": [ 11.2213109, 47.1640546 ] } },
{ "type": "Feature", "properties": { "email": null, "website": null, "ele": "1190", "phone": null, "opening_ho": null, "name": "Ganalm", "contact_we": null }, "geometry": { "type": "Point", "coordinates": [ 11.6027471, 47.3433836 ] } },
{ "type": "Feature", "properties": { "email": null, "website": null, "ele": "1755", "phone": null, "opening_ho": null, "name": "Almind-Alm", "contact_we": null }, "geometry": { "type": "Point", "coordinates": [ 11.2023284, 47.1684302 ] } },
{ "type": "Feature", "properties": { "email": null, "website": "https://www.alpenverein.at/bettelwurfhuette/", "ele": "2077", "phone": "+43-664-172 24 68", "opening_ho": null, "name": "Bettelwurfhütte", "contact_we": null }, "geometry": { "type": "Point", "coordinates": [ 11.50748, 47.3386096 ] } },
{ "type": "Feature", "properties": { "email": null, "website": null, "ele": "1580", "phone": null, "opening_ho": null, "name": "Schafalm", "contact_we": null }, "geometry": { "type": "Point", "coordinates": [ 11.2985671, 47.1986475 ] } },
{ "type": "Feature", "properties": { "email": null, "website": "https://www.rosskogelhuette.tirol/", "ele": "1778", "phone": "+43 5232 81419", "opening_ho": "We,Th,Su 08:00-18:00; Fr,Sa 08:00-22:00", "name": "Roßkogelhütte", "contact_we": null }, "geometry": { "type": "Point", "coordinates": [ 11.1904543, 47.240689 ] } },
{ "type": "Feature", "properties": { "email": null, "website": null, "ele": "1511", "phone": null, "opening_ho": null, "name": "Aldranser Alm", "contact_we": null }, "geometry": { "type": "Point", "coordinates": [ 11.4877948, 47.2305866 ] } },
{ "type": "Feature", "properties": { "email": null, "website": "https://sonnbergalm.at/", "ele": "1960", "phone": null, "opening_ho": null, "name": "Sonnberg Alm", "contact_we": null }, "geometry": { "type": "Point", "coordinates": [ 11.101614, 47.2095281 ] } },
{ "type": "Feature", "properties": { "email": null, "website": null, "ele": "1800", "phone": null, "opening_ho": null, "name": "Zirmbach Alm", "contact_we": null }, "geometry": { "type": "Point", "coordinates": [ 11.0688343, 47.220083 ] } },
{ "type": "Feature", "properties": { "email": null, "website": null, "ele": "1977", "phone": "+43 720 702724", "opening_ho": null, "name": "Adolf-Pichler-Hütte", "contact_we": null }, "geometry": { "type": "Point", "coordinates": [ 11.2679435, 47.1667124 ] } },
{ "type": "Feature", "properties": { "email": null, "website": "http://www.kreither-alm.at", "ele": "1500", "phone": "+4367761669613", "opening_ho": null, "name": "Kreither Alm", "contact_we": null }, "geometry": { "type": "Point", "coordinates": [ 11.347864, 47.1923276 ] } },
{ "type": "Feature", "properties": { "email": null, "website": "https://www.hoettingeralm.at/", "ele": "1487", "phone": null, "opening_ho": null, "name": "Höttinger Alm", "contact_we": null }, "geometry": { "type": "Point", "coordinates": [ 11.3668698, 47.2984932 ] } },
{ "type": "Feature", "properties": { "email": null, "website": null, "ele": "1698", "phone": "+43 664 4053026", "opening_ho": null, "name": "Patscher Alm", "contact_we": null }, "geometry": { "type": "Point", "coordinates": [ 11.4409409, 47.2084713 ] } },
{ "type": "Feature", "properties": { "email": null, "website": "https://www.birgitzeralm.at/", "ele": "1808", "phone": "+43 664 5970026", "opening_ho": null, "name": "Birgitzer Alm", "contact_we": null }, "geometry": { "type": "Point", "coordinates": [ 11.3079304, 47.2040753 ] } },
{ "type": "Feature", "properties": { "email": null, "website": null, "ele": "1980", "phone": null, "opening_ho": null, "name": "Stoankasern", "contact_we": null }, "geometry": { "type": "Point", "coordinates": [ 11.6734379, 47.14466 ] } },
{ "type": "Feature", "properties": { "email": "office@voldertalhuette.at", "website": "https://www.voldertalhuette.at/", "ele": "1380", "phone": "+436649757447", "opening_ho": null, "name": "Voldertalhütte", "contact_we": null }, "geometry": { "type": "Point", "coordinates": [ 11.5510405, 47.2246716 ] } },
{ "type": "Feature", "properties": { "email": null, "website": null, "ele": null, "phone": null, "opening_ho": null, "name": null, "contact_we": null }, "geometry": { "type": "Point", "coordinates": [ 11.3431729, 47.3374191 ] } },
{ "type": "Feature", "properties": { "email": null, "website": null, "ele": null, "phone": null, "opening_ho": null, "name": null, "contact_we": null }, "geometry": { "type": "Point", "coordinates": [ 11.1143533, 47.3868504 ] } },
{ "type": "Feature", "properties": { "email": null, "website": null, "ele": null, "phone": null, "opening_ho": null, "name": null, "contact_we": null }, "geometry": { "type": "Point", "coordinates": [ 11.3430435, 47.3374338 ] } },
{ "type": "Feature", "properties": { "email": null, "website": null, "ele": null, "phone": null, "opening_ho": null, "name": null, "contact_we": null }, "geometry": { "type": "Point", "coordinates": [ 11.4256027, 47.3299569 ] } },
{ "type": "Feature", "properties": { "email": null, "website": null, "ele": "1907", "phone": null, "opening_ho": "Tu 10:00-17:00, Th 10:00-23:00, Fr-Su 10:00-17:00", "name": "Hochmahdalm", "contact_we": null }, "geometry": { "type": "Point", "coordinates": [ 11.4513919, 47.2029502 ] } },
{ "type": "Feature", "properties": { "email": null, "website": null, "ele": "1735", "phone": null, "opening_ho": null, "name": "Lanser Alm", "contact_we": null }, "geometry": { "type": "Point", "coordinates": [ 11.4559488, 47.2178993 ] } },
{ "type": "Feature", "properties": { "email": null, "website": null, "ele": null, "phone": null, "opening_ho": null, "name": null, "contact_we": null }, "geometry": { "type": "Point", "coordinates": [ 11.6035806, 47.3800916 ] } },
{ "type": "Feature", "properties": { "email": null, "website": null, "ele": "1947", "phone": null, "opening_ho": null, "name": "Klammalm", "contact_we": null }, "geometry": { "type": "Point", "coordinates": [ 11.5961086, 47.1510754 ] } },
{ "type": "Feature", "properties": { "email": null, "website": "https://www.alpengasthof-sonnenstein.at", "ele": "1400", "phone": "+43 664 12 12 645", "opening_ho": null, "name": "Berggasthof Sonnenstein", "contact_we": null }, "geometry": { "type": "Point", "coordinates": [ 11.3794187, 47.1454917 ] } },
{ "type": "Feature", "properties": { "email": null, "website": null, "ele": "1680", "phone": null, "opening_ho": null, "name": "Gerichtsherrenalm", "contact_we": null }, "geometry": { "type": "Point", "coordinates": [ 11.4317177, 47.0676526 ] } },
{ "type": "Feature", "properties": { "email": null, "website": "http://www.noesslachhuette.at", "ele": "1600", "phone": null, "opening_ho": null, "name": "Nösslachhütte", "contact_we": null }, "geometry": { "type": "Point", "coordinates": [ 11.464588, 47.0499356 ] } },
{ "type": "Feature", "properties": { "email": null, "website": "https://www.goetzneralm.at", "ele": "1542", "phone": "+436644303842", "opening_ho": null, "name": "Götzner Alm", "contact_we": null }, "geometry": { "type": "Point", "coordinates": [ 11.3197904, 47.210542 ] } },
{ "type": "Feature", "properties": { "email": "willkommen@lizumerhuette.tirol", "website": "http://www.lizumerhuette.at", "ele": "2019", "phone": "+43 664 9272117", "opening_ho": null, "name": "Lizumer Hütte", "contact_we": null }, "geometry": { "type": "Point", "coordinates": [ 11.6405054, 47.1666521 ] } },
{ "type": "Feature", "properties": { "email": null, "website": null, "ele": "1740", "phone": null, "opening_ho": null, "name": "Pfarrachalm", "contact_we": null }, "geometry": { "type": "Point", "coordinates": [ 11.335837, 47.1763487 ] } },
{ "type": "Feature", "properties": { "email": "birgitzkoepflhaus@aon.at", "website": "http://www.wildlife.at/", "ele": "2098", "phone": "+43 664 333 6561", "opening_ho": null, "name": "Birgitzköpflhaus", "contact_we": null }, "geometry": { "type": "Point", "coordinates": [ 11.3161802, 47.1950654 ] } },
{ "type": "Feature", "properties": { "email": null, "website": null, "ele": "1300", "phone": null, "opening_ho": null, "name": "Pfurtschell", "contact_we": null }, "geometry": { "type": "Point", "coordinates": [ 11.3207088, 47.1308591 ] } },
{ "type": "Feature", "properties": { "email": null, "website": null, "ele": null, "phone": null, "opening_ho": "Sa-Su", "name": "Seapnalm", "contact_we": null }, "geometry": { "type": "Point", "coordinates": [ 11.5442283, 47.1561567 ] } },
{ "type": "Feature", "properties": { "email": null, "website": null, "ele": null, "phone": null, "opening_ho": null, "name": "Vögeler Alm", "contact_we": null }, "geometry": { "type": "Point", "coordinates": [ 11.5426105, 47.1605987 ] } },
{ "type": "Feature", "properties": { "email": null, "website": null, "ele": null, "phone": null, "opening_ho": null, "name": "Fritze Hittn", "contact_we": null }, "geometry": { "type": "Point", "coordinates": [ 11.6152052, 47.4023823 ] } },
{ "type": "Feature", "properties": { "email": null, "website": null, "ele": null, "phone": null, "opening_ho": null, "name": null, "contact_we": null }, "geometry": { "type": "Point", "coordinates": [ 11.6540299, 47.2408473 ] } },
{ "type": "Feature", "properties": { "email": null, "website": null, "ele": "1820", "phone": null, "opening_ho": null, "name": "Zehenteralm", "contact_we": null }, "geometry": { "type": "Point", "coordinates": [ 11.5656882, 47.1566397 ] } },
{ "type": "Feature", "properties": { "email": null, "website": null, "ele": null, "phone": null, "opening_ho": null, "name": "Kühgrüblalm", "contact_we": null }, "geometry": { "type": "Point", "coordinates": [ 11.1593285, 47.164803 ] } },
{ "type": "Feature", "properties": { "email": null, "website": "http://www.ski-klub-innsbruck.at/html/schihutte.html", "ele": null, "phone": null, "opening_ho": null, "name": "Fotscher Schihütte", "contact_we": null }, "geometry": { "type": "Point", "coordinates": [ 11.219687, 47.1721315 ] } },
{ "type": "Feature", "properties": { "email": null, "website": null, "ele": null, "phone": null, "opening_ho": null, "name": "Längentaleralm", "contact_we": null }, "geometry": { "type": "Point", "coordinates": [ 11.1190301, 47.1122266 ] } },
{ "type": "Feature", "properties": { "email": null, "website": null, "ele": null, "phone": null, "opening_ho": null, "name": "Hüttl am Stoa", "contact_we": null }, "geometry": { "type": "Point", "coordinates": [ 11.0618315, 47.1893963 ] } },
{ "type": "Feature", "properties": { "email": null, "website": null, "ele": null, "phone": null, "opening_ho": null, "name": "Oberhofer Galtalm", "contact_we": null }, "geometry": { "type": "Point", "coordinates": [ 11.1047496, 47.2454333 ] } },
{ "type": "Feature", "properties": { "email": null, "website": null, "ele": null, "phone": null, "opening_ho": null, "name": "Forstgartenhütte", "contact_we": null }, "geometry": { "type": "Point", "coordinates": [ 11.4674309, 47.0531842 ] } },
{ "type": "Feature", "properties": { "email": null, "website": null, "ele": null, "phone": null, "opening_ho": null, "name": "Nösslachjochhütte", "contact_we": null }, "geometry": { "type": "Point", "coordinates": [ 11.448556, 47.0640274 ] } },
{ "type": "Feature", "properties": { "email": null, "website": null, "ele": null, "phone": null, "opening_ho": null, "name": "Jagdhaus Kasten-Hinteralm", "contact_we": null }, "geometry": { "type": "Point", "coordinates": [ 11.433177, 47.3710766 ] } },
{ "type": "Feature", "properties": { "email": null, "website": null, "ele": null, "phone": null, "opening_ho": null, "name": "Hütte Bundesforste", "contact_we": null }, "geometry": { "type": "Point", "coordinates": [ 11.0935224, 47.3640535 ] } }
]
}
